branchId,lat,lng,name,tel,location,address
1,37.446842,126.454047,인천공항 지점,031-512-3489,인천공항,인천광역시 중구 공항로 271
2,37.56517,126.803013,김포공항 지점,02-777-9124,김포공항,서울특별시 강서구 하늘길 38
3,37.570097,127.064886,서울동부 지점,02-334-5821,서울동부,서울 동대문구 한천로 100 1-2층
4,37.493788,127.012596,서울남부 지점,02-3882-1123,서울남부,서울특별시 서초구 서초대로 283
5,37.653579,127.058793,서울북부 지점,02-783-1042,서울북부,서울 노원구 노해로 456 동방빌딩 1층
